city_id,city,latitude,longitude,temperature,humidity,cloudiness,wind_speed,country,date_time
0,kalianget,-7.05,113.9333,81.9,83,100,8.84,ID,2024-04-20 13:40:57
1,edinburgh of the seven seas,-37.0676,-12.3116,57.92,69,100,6.96,SH,2024-04-20 13:39:09
2,phan rang-thap cham,11.5667,108.9833,75.7,91,13,2.8,VN,2024-04-20 13:40:58
3,tiksi,71.6872,128.8694,17.4,90,50,5.84,RU,2024-04-20 13:39:08
4,adamstown,-25.066,-130.1015,72.37,75,0,24.05,PN,2024-04-20 13:39:13
5,hermanus,-34.4187,19.2345,62.8,90,21,8.9,ZA,2024-04-20 13:39:27
6,wailua homesteads,22.0669,-159.378,74.93,72,75,10.36,US,2024-04-20 13:39:44
7,carnarvon,-24.8667,113.6333,73.29,28,0,12.21,AU,2024-04-20 13:40:02
8,gadzhiyevo,69.2551,33.3362,24.48,66,100,20.83,RU,2024-04-20 13:39:17
9,yellowknife,62.456,-114.3525,42.21,67,20,6.91,CA,2024-04-20 13:39:07
10,longyearbyen,78.2186,15.6401,30.04,69,75,19.57,SJ,2024-04-20 13:39:06
11,invercargill,-46.4,168.35,52.02,97,94,8.99,NZ,2024-04-20 13:39:25
12,papatowai,-46.5619,169.4708,53.65,88,100,9.04,NZ,2024-04-20 13:39:35
13,laguna,38.421,-121.4238,75.94,55,0,5.75,US,2024-04-20 13:39:53
14,san antonio de pale,-1.4014,5.6325,83.77,82,81,4.68,GQ,2024-04-20 13:39:51
15,umba,66.6871,34.3429,18.79,87,100,14.67,RU,2024-04-20 13:40:59
16,petropavlovsk-kamchatsky,53.0452,158.6483,34.45,95,100,6.71,RU,2024-04-20 13:39:42
17,bredasdorp,-34.5322,20.0403,64.58,89,94,6.89,ZA,2024-04-20 13:39:12
18,college,64.8569,-147.8028,49.39,33,0,3.44,US,2024-04-20 13:38:21
19,tocache,-8.1842,-76.5125,87.08,57,28,2.64,PE,2024-04-20 13:41:00
20,fort bragg,35.139,-79.006,78.96,65,100,5.75,US,2024-04-20 13:39:35
21,port-aux-francais,-49.35,70.2167,46.31,97,99,30.33,TF,2024-04-20 13:39:14
22,iqaluit,63.7506,-68.5145,14.7,78,100,8.05,CA,2024-04-20 13:39:07
23,olonkinbyen,70.9221,-8.7187,30.99,96,100,33.06,SJ,2024-04-20 13:39:06
24,bilibino,68.0546,166.4372,2.61,92,80,1.21,RU,2024-04-20 13:39:09
25,grytviken,-54.2811,-36.5092,41.54,97,100,2.15,GS,2024-04-20 13:39:09
26,nagqu,31.5,92.0,27.86,61,81,5.5,CN,2024-04-20 13:39:16
27,sitka,57.0531,-135.33,60.69,23,0,9.22,US,2024-04-20 13:41:01
28,lebu,-37.6167,-73.65,56.32,64,100,15.93,CL,2024-04-20 13:39:40
29,thompson,55.7435,-97.8558,35.76,41,20,12.66,CA,2024-04-20 13:39:08
30,talnakh,69.4865,88.3972,-9.8,95,52,4.47,RU,2024-04-20 13:39:30
31,aasiaat,68.7098,-52.8699,22.84,84,100,8.99,GL,2024-04-20 13:39:23
32,puerto natales,-51.7236,-72.4875,43.25,49,40,19.57,CL,2024-04-20 13:39:17
33,punta arenas,-53.15,-70.9167,42.91,49,75,18.41,CL,2024-04-20 13:39:07
34,margaret river,-33.95,115.0667,59.95,49,47,4.94,AU,2024-04-20 13:39:43
35,bethel,41.3712,-73.414,62.22,45,75,6.91,US,2024-04-20 13:39:19
36,vorgashor,67.5833,63.95,15.8,78,100,10.27,RU,2024-04-20 13:39:08
37,kapuskasing,49.4169,-82.4331,39.2,52,75,18.41,CA,2024-04-20 13:39:28
38,mahina,-17.5065,-149.489,87.57,62,75,18.41,PF,2024-04-20 13:39:52
39,bakaly,55.1789,53.8028,57.76,91,100,3.13,RU,2024-04-20 13:41:02
40,astrakhan,46.3497,48.0408,58.87,77,0,6.71,RU,2024-04-20 13:41:02
41,lazaro cardenas,17.9583,-102.2,82.94,51,6,12.1,MX,2024-04-20 13:40:10
42,yaren,-0.5472,166.916,82.67,74,94,1.07,NR,2024-04-20 13:41:03
43,udachny,66.4167,112.4,29.44,95,100,6.15,RU,2024-04-20 13:39:48
44,ilulissat,69.2167,-51.1,26.62,59,24,3.44,GL,2024-04-20 13:39:08
45,ust-nera,64.5667,143.2,16.23,88,32,2.55,RU,2024-04-20 13:39:18
46,gaspe,48.8334,-64.4819,46.62,71,100,5.75,CA,2024-04-20 13:41:03
47,adrar,20.5022,-10.0711,86.29,12,98,8.97,MR,2024-04-20 13:41:03
48,grantsville,40.5999,-112.4644,64.31,37,0,9.22,US,2024-04-20 13:40:42
49,atafu village,-8.5421,-172.5159,84.72,77,3,13.02,TK,2024-04-20 13:40:15
50,jamestown,42.097,-79.2353,40.48,48,100,21.85,US,2024-04-20 13:39:08
51,la passe,45.5549,-0.8967,50.02,69,0,13.33,FR,2024-04-20 13:39:25
52,tazovsky,67.4667,78.7,-12.05,100,99,3.18,RU,2024-04-20 13:39:33
53,guerrero negro,27.9769,-114.0611,66.54,58,4,17.22,MX,2024-04-20 13:41:04
54,lompoc,34.6391,-120.4579,62.55,64,100,11.5,US,2024-04-20 13:41:04
55,oranjemund,-28.55,16.4333,59.79,87,17,5.12,NA,2024-04-20 13:41:05
56,pemangkat,1.1667,108.9667,80.98,83,98,3.94,ID,2024-04-20 13:41:05
57,portland,45.5234,-122.6762,69.21,29,75,11.5,US,2024-04-20 13:38:16
58,brisas de zicatela,15.8369,-97.0419,86.52,70,0,8.05,MX,2024-04-20 13:40:16
59,melfi,40.9965,15.6514,45.16,99,87,1.28,IT,2024-04-20 13:41:05
60,filipstad,59.7124,14.1683,32.05,71,99,6.96,SE,2024-04-20 13:41:05
61,harper,4.375,-7.7169,82.65,82,93,5.88,LR,2024-04-20 13:41:06
62,kerugoya,-0.4989,37.2803,63.32,99,100,0.58,KE,2024-04-20 13:41:06
63,fort st. john,56.2499,-120.8529,51.69,20,0,8.05,CA,2024-04-20 13:39:14
64,kununurra,-15.7667,128.7333,73.38,40,10,6.91,AU,2024-04-20 13:41:06
65,chonchi,-42.6128,-73.8092,55.11,77,63,2.33,CL,2024-04-20 13:40:24
66,auki,-8.7676,160.7034,81.54,83,89,3.27,SB,2024-04-20 13:41:06
67,badger,64.8,-147.5333,47.41,34,0,3.44,US,2024-04-20 13:39:21
68,puerto ayora,-0.7393,-90.3518,80.55,91,64,5.01,EC,2024-04-20 13:39:15
69,tamanrasset,22.785,5.5228,76.91,6,0,3.44,DZ,2024-04-20 13:41:07
70,rundu,-17.9333,19.7667,69.17,41,4,6.58,NA,2024-04-20 13:41:07
71,nar'yan-mar,67.6713,53.087,14.11,93,100,21.0,RU,2024-04-20 13:40:08
72,kamina,-8.7386,24.9906,65.8,96,100,2.37,CD,2024-04-20 13:41:08
73,brigantine,39.4101,-74.3646,63.14,64,0,12.66,US,2024-04-20 13:41:08
74,kavieng,-2.5744,150.7967,83.25,69,82,7.9,PG,2024-04-20 13:41:08
75,kintinku,-5.8833,35.2333,70.66,79,78,3.85,TZ,2024-04-20 13:41:08
76,susuman,62.7833,148.1667,7.83,98,98,1.21,RU,2024-04-20 13:39:35
77,blackmans bay,-43.0167,147.3167,45.36,86,47,1.99,AU,2024-04-20 13:39:14
78,jinghong,21.991,100.7341,70.52,52,32,2.51,CN,2024-04-20 13:41:09
79,touros,-5.1989,-35.4608,76.21,94,100,6.38,BR,2024-04-20 13:41:09
80,el burgo de osma,41.5862,-3.0652,48.22,57,10,5.01,ES,2024-04-20 13:41:09
81,port elizabeth,-33.918,25.5701,68.31,94,100,1.99,ZA,2024-04-20 13:39:18
82,kontiolahti,62.7602,29.8471,19.35,93,100,3.44,FI,2024-04-20 13:41:09
83,linhares,-19.3911,-40.0722,73.38,78,34,6.87,BR,2024-04-20 13:41:09
84,babadag,44.9,28.7167,49.87,87,75,13.8,RO,2024-04-20 13:41:10
85,hasaki,35.7333,140.8333,59.4,62,63,11.86,JP,2024-04-20 13:40:09
86,happy valley-goose bay,53.3168,-60.3315,44.91,61,100,21.85,CA,2024-04-20 13:41:10
87,robore,-18.3333,-59.75,90.19,45,26,7.61,BO,2024-04-20 13:41:10
88,brazil,39.5237,-87.125,52.0,42,0,16.11,US,2024-04-20 13:41:10
89,mata-utu,-13.2816,-176.1745,84.22,80,68,19.13,WF,2024-04-20 13:41:11
90,waitangi,-43.9535,-176.5597,55.81,80,100,9.46,NZ,2024-04-20 13:39:07
91,fale old settlement,-9.3852,-171.2468,85.01,74,48,13.56,TK,2024-04-20 13:41:11
92,brixham,50.3943,-3.5159,46.44,75,18,1.99,GB,2024-04-20 13:41:11
93,lamu,-2.2717,40.902,80.94,85,100,16.71,KE,2024-04-20 13:41:11
94,kodiak,57.79,-152.4072,40.51,87,100,10.36,US,2024-04-20 13:39:11
95,kirensk,57.7853,108.1119,28.96,97,100,1.99,RU,2024-04-20 13:40:17
96,west island,-12.1568,96.8225,82.38,83,40,10.36,CC,2024-04-20 13:39:25
97,kone,-21.0595,164.8658,80.55,75,67,4.34,NC,2024-04-20 13:41:12
98,isafjordur,66.0755,-23.124,39.81,94,100,15.05,IS,2024-04-20 13:39:25
99,newman,37.3138,-121.0208,78.15,47,43,5.99,US,2024-04-20 13:41:12
100,ribeira grande,38.5167,-28.7,64.8,88,75,15.99,PT,2024-04-20 13:39:27
101,bubaque,11.2833,-15.8333,78.28,68,85,13.06,GW,2024-04-20 13:41:12
102,solan,30.9167,77.1167,59.36,52,3,5.39,IN,2024-04-20 13:41:13
103,korocha,50.8107,37.1953,54.32,59,98,18.1,RU,2024-04-20 13:41:13
104,aoulef,26.9667,1.0833,87.93,11,100,11.5,DZ,2024-04-20 13:41:13
105,qaqortoq,60.7167,-46.0333,29.93,75,45,1.32,GL,2024-04-20 13:39:28
106,sierakow,52.6513,16.0805,31.23,71,24,5.73,PL,2024-04-20 13:41:13
107,minas de marcona,-15.2119,-75.1103,67.39,67,96,7.43,PE,2024-04-20 13:40:04
108,tynda,55.1667,124.7167,26.82,95,100,11.48,RU,2024-04-20 13:41:14
109,mogocha,53.7333,119.7667,25.83,79,97,0.94,RU,2024-04-20 13:39:54
110,mawu,29.5923,107.3139,58.5,98,100,2.28,CN,2024-04-20 13:41:14
111,utrik,11.2278,169.8474,81.61,76,98,15.97,MH,2024-04-20 13:39:22
112,fortuna,40.5982,-124.1573,63.57,43,20,13.8,US,2024-04-20 13:40:28
113,lensk,60.7253,114.9278,33.71,99,100,3.29,RU,2024-04-20 13:36:16
114,lagunas,-5.2269,-75.6753,85.08,70,91,3.76,PE,2024-04-20 13:41:14
115,villa gesell,-37.2639,-56.973,65.93,85,83,10.71,AR,2024-04-20 13:40:12
116,constantia,44.1833,28.65,47.08,87,100,20.29,RO,2024-04-20 13:39:19
117,aykhal,66.0,111.5,27.5,97,100,4.68,RU,2024-04-20 13:39:37
118,rio grande,-32.035,-52.0986,77.11,73,1,8.3,BR,2024-04-20 13:39:36
119,fisterra,42.9049,-9.2629,57.74,72,1,10.78,ES,2024-04-20 13:39:21
120,polyarnyy,69.1989,33.4478,22.8,68,99,19.28,RU,2024-04-20 13:39:13
121,sibolga,1.7427,98.7792,77.09,89,100,2.42,ID,2024-04-20 13:41:15
122,inhambane,-23.865,35.3833,70.83,83,0,3.29,MZ,2024-04-20 13:41:16
123,hohhot,40.8106,111.6522,37.69,81,0,6.71,CN,2024-04-20 13:41:16
124,dongola,19.1667,30.4833,85.42,13,0,11.88,SD,2024-04-20 13:41:16
125,tolanaro,-25.0319,46.9987,71.67,88,20,0.0,MG,2024-04-20 13:39:49
126,dudinka,69.4058,86.1778,-9.38,100,98,0.67,RU,2024-04-20 13:39:17
127,iskateley,67.6803,53.1512,14.02,93,100,21.0,RU,2024-04-20 13:39:19
128,sitamau,24.0167,75.35,80.31,20,100,7.36,IN,2024-04-20 13:41:16
129,port douglas,-16.4833,145.4667,76.32,80,74,2.62,AU,2024-04-20 13:39:54
130,ampanihy,-24.7,44.75,67.12,97,14,3.13,MG,2024-04-20 13:41:17
131,kurumkan,54.3,110.3,33.13,71,53,4.0,RU,2024-04-20 13:41:17
132,midvagur,62.0511,-7.1939,47.23,100,100,5.75,FO,2024-04-20 13:41:17
133,rongelap,11.1635,166.8941,81.28,77,36,16.42,MH,2024-04-20 13:40:25
134,san felipe,10.3399,-68.7425,83.1,66,100,7.29,VE,2024-04-20 13:41:17
135,anadyr,64.75,177.4833,12.0,85,0,17.0,RU,2024-04-20 13:39:30
136,saipan,15.1355,145.701,79.5,83,20,12.66,MP,2024-04-20 13:39:10
137,ujae,8.9322,165.7642,82.18,81,100,21.39,MH,2024-04-20 13:41:18
138,pangody,65.85,74.4859,6.62,91,100,5.37,RU,2024-04-20 13:41:18
139,vila franca do campo,37.7167,-25.4333,64.89,99,100,5.3,PT,2024-04-20 13:39:09
140,uturoa,-16.7333,-151.4333,83.62,74,54,17.31,PF,2024-04-20 13:39:15
141,xicotencatl,23.0167,-98.8833,98.78,33,8,12.46,MX,2024-04-20 13:41:18
142,avarua,-21.2078,-159.775,78.13,78,95,16.67,CK,2024-04-20 13:39:27
143,fort william,56.8165,-5.1121,50.31,79,100,2.66,GB,2024-04-20 13:41:19
144,georgetown,5.4112,100.3354,84.15,79,40,2.3,MY,2024-04-20 13:39:27
145,san patricio,28.017,-97.5169,83.57,55,69,15.21,US,2024-04-20 13:40:12
146,mendi,-6.1761,143.6513,54.12,95,70,3.91,PG,2024-04-20 13:41:19
147,hithadhoo,-0.6,73.0833,84.47,71,80,4.12,MV,2024-04-20 13:39:58
148,plettenberg bay,-34.0527,23.3716,65.12,93,98,4.18,ZA,2024-04-20 13:41:20
149,villa hidalgo,21.6667,-102.6,84.97,9,0,17.16,MX,2024-04-20 13:41:20
150,salto del guaira,-24.0625,-54.3069,73.62,59,0,4.09,PY,2024-04-20 13:41:20
151,albany,42.6001,-73.9662,50.32,61,94,8.01,US,2024-04-20 13:36:52
152,richards bay,-28.783,32.0377,72.18,82,5,6.55,ZA,2024-04-20 13:39:14
153,crane,31.3974,-102.3501,54.21,81,100,17.43,US,2024-04-20 13:40:11
154,plastun,44.7561,136.2939,37.49,89,99,2.73,RU,2024-04-20 13:41:21
155,santa elena de uairen,4.6167,-61.1333,78.13,66,84,3.85,VE,2024-04-20 13:41:21
156,dom pedrito,-30.9828,-54.6731,67.15,81,0,5.06,BR,2024-04-20 13:41:21
157,ushuaia,-54.8,-68.3,38.86,81,75,23.02,AR,2024-04-20 13:39:11
158,maraba,-5.3686,-49.1178,84.38,84,75,0.0,BR,2024-04-20 13:41:21
159,illizi,26.4833,8.4667,87.6,8,39,5.03,DZ,2024-04-20 13:41:22
160,wynyard,-41.0,145.7167,51.66,81,72,9.4,AU,2024-04-20 13:41:22
161,lihue,21.9789,-159.3672,75.33,65,75,10.36,US,2024-04-20 13:39:21
162,constitucion,-35.3333,-72.4167,60.08,64,100,10.92,CL,2024-04-20 13:41:22
163,pativilca,-10.7,-77.7833,73.47,72,47,9.35,PE,2024-04-20 13:41:22
164,misratah,32.3754,15.0925,62.31,66,74,12.59,LY,2024-04-20 13:41:23
165,klyuchi,52.2667,79.1667,44.44,52,11,5.46,RU,2024-04-20 13:39:42
166,afaahiti,-17.75,-149.2833,85.87,76,87,16.98,PF,2024-04-20 13:39:17
167,arraial do cabo,-22.9661,-42.0278,76.86,36,0,6.91,BR,2024-04-20 13:39:18
168,tual,-5.6667,132.75,83.8,78,94,5.44,ID,2024-04-20 13:41:23
169,vila velha,-20.3297,-40.2925,75.94,84,40,13.0,BR,2024-04-20 13:39:48
170,zeya,53.75,127.2667,38.48,75,100,10.29,RU,2024-04-20 13:41:23
171,teguise,29.0605,-13.564,66.42,68,20,11.5,ES,2024-04-20 13:41:23
172,xai-xai,-25.0519,33.6442,68.92,81,0,7.2,MZ,2024-04-20 13:41:24
173,lysekil,58.2743,11.4358,33.98,87,21,9.26,SE,2024-04-20 13:41:24
174,yanam,16.7333,82.2167,77.31,66,99,4.5,IN,2024-04-20 13:41:24
175,mount gambier,-37.8333,140.7667,43.11,97,53,1.88,AU,2024-04-20 13:40:11
176,kavaratti,10.5669,72.642,85.66,75,100,11.83,IN,2024-04-20 13:41:24
177,khirkiyan,22.1667,76.85,88.05,21,71,7.11,IN,2024-04-20 13:41:25
178,el calafate,-50.3408,-72.2768,41.32,60,2,11.48,AR,2024-04-20 13:41:25
179,flin flon,54.7682,-101.865,46.24,36,40,8.05,CA,2024-04-20 13:41:25
180,port alfred,-33.5906,26.891,69.19,96,100,10.29,ZA,2024-04-20 13:39:31
181,kraksaan,-7.7585,113.3962,79.02,85,70,4.47,ID,2024-04-20 13:41:25
182,mocimboa,-11.3167,40.35,75.67,92,76,8.34,MZ,2024-04-20 13:41:25
183,goure,13.9835,10.2704,84.02,13,22,0.09,NE,2024-04-20 13:41:26
184,fiche,9.8,38.7333,58.95,57,100,5.48,ET,2024-04-20 13:41:26
185,faya-largeau,17.9257,19.1043,88.99,12,0,11.16,TD,2024-04-20 13:39:21
186,la tuque,47.4334,-72.7824,46.65,49,98,5.75,CA,2024-04-20 13:41:26
187,nuuk,64.1835,-51.7216,27.21,74,75,11.5,GL,2024-04-20 13:41:26
188,praia da vitoria,38.7333,-27.0667,66.45,77,40,8.7,PT,2024-04-20 13:39:23
189,dzilam gonzalez,21.2833,-88.9333,90.64,45,10,8.48,MX,2024-04-20 13:41:27
190,maubin,16.7333,95.65,80.08,77,58,8.25,MM,2024-04-20 13:41:27
191,firuzabad,28.8438,52.5707,60.87,54,0,4.43,IR,2024-04-20 13:41:27
192,keflavik,64.0049,-22.5624,46.83,100,100,33.38,IS,2024-04-20 13:39:19
193,island harbour,50.724,-1.2758,43.9,73,43,5.26,GB,2024-04-20 13:41:27
194,tiquipaya,-17.3382,-66.2189,73.98,23,40,15.01,BO,2024-04-20 13:41:27
195,enewetak,11.3474,162.3373,82.06,79,46,17.92,MH,2024-04-20 13:39:26
196,egilsstadir,65.2653,-14.3948,44.51,76,0,17.27,IS,2024-04-20 13:39:10
197,coquimbo,-29.9533,-71.3436,62.33,82,75,5.75,CL,2024-04-20 13:39:49
198,hammerfest,70.6634,23.6821,23.45,68,98,11.5,NO,2024-04-20 13:41:28
199,hamilton,39.1834,-84.5333,56.23,37,0,11.5,US,2024-04-20 13:39:47
200,iacu,-12.7672,-40.2117,80.73,61,98,2.21,BR,2024-04-20 13:41:28
201,brooks,50.5834,-111.8851,47.7,33,0,10.36,CA,2024-04-20 13:40:23
202,hirara,24.8,125.2833,77.27,100,20,11.5,JP,2024-04-20 13:41:29
203,vel'sk,61.0701,42.0983,35.28,78,89,7.0,RU,2024-04-20 13:41:29
204,mil'kovo,55.6078,37.7956,42.1,68,100,6.11,RU,2024-04-20 13:41:29
205,whakatane,-37.9585,176.9854,62.89,91,100,5.03,NZ,2024-04-20 13:41:29
206,tazacorte,28.629,-17.9293,67.15,85,75,16.11,ES,2024-04-20 13:41:30
207,peterhead,57.5058,-1.7981,43.2,68,99,7.05,GB,2024-04-20 13:41:30
208,okhotsk,59.3833,143.3,28.38,92,100,5.12,RU,2024-04-20 13:39:23
209,kalmunai,7.4167,81.8167,80.85,84,100,4.45,LK,2024-04-20 13:41:30
210,san bernardo,-33.6,-70.7167,68.65,48,100,4.27,CL,2024-04-20 13:41:30
211,'alaqahdari dishu,30.4374,63.313,71.49,27,0,2.53,AF,2024-04-20 13:41:30
212,cedeira,43.6797,-8.0209,55.9,75,6,30.27,ES,2024-04-20 13:41:31
213,cooper's town,26.8667,-77.5167,75.43,68,0,8.88,BS,2024-04-20 13:39:29
214,saint-pierre,-21.3393,55.4781,74.88,73,0,4.61,RE,2024-04-20 13:40:19
215,kijang,35.2442,129.2139,58.73,94,100,12.53,KR,2024-04-20 13:39:15
216,el nido,11.1858,119.3956,83.05,74,11,11.61,PH,2024-04-20 13:41:31
217,kingston,17.997,-76.7936,88.02,62,20,19.57,JM,2024-04-20 13:35:47
218,zouerate,22.7187,-12.4521,80.51,18,100,12.5,MR,2024-04-20 13:41:32
219,hawaiian paradise park,19.5933,-154.9731,71.89,94,100,8.05,US,2024-04-20 13:39:12
220,ola,59.5833,151.2833,17.15,63,5,9.17,RU,2024-04-20 13:39:39
221,vilyuchinsk,52.9306,158.4028,35.92,99,100,5.86,RU,2024-04-20 13:39:10
222,la ronge,55.1001,-105.2842,52.05,19,40,13.8,CA,2024-04-20 13:41:32
223,sao jose da coroa grande,-8.8978,-35.1478,81.03,77,77,6.62,BR,2024-04-20 13:41:32
224,cabedelo,-6.9811,-34.8339,77.67,82,79,8.34,BR,2024-04-20 13:41:33
225,tura,25.5198,90.2201,76.32,51,2,7.07,IN,2024-04-20 13:39:33
226,stanley,54.868,-1.6985,41.58,80,75,3.44,GB,2024-04-20 13:39:31
227,hami,42.8,93.45,61.56,30,23,7.61,CN,2024-04-20 13:41:33
228,borova,50.1763,30.1043,50.07,76,100,8.95,UA,2024-04-20 13:41:33
229,bouna,9.2667,-3.0,86.97,51,53,8.03,CI,2024-04-20 13:41:33
230,tarawa,1.419,172.984,84.29,84,40,4.61,KI,2024-04-20 13:41:34
231,remire-montjoly,4.9167,-52.2667,84.24,79,0,9.22,GF,2024-04-20 13:39:23
232,liaoyuan,42.9036,125.1358,45.05,66,1,3.58,CN,2024-04-20 13:41:34
233,sehore,23.2,77.0833,84.81,18,52,12.5,IN,2024-04-20 13:41:34
234,heilbron,-27.2812,27.9709,61.54,41,32,6.82,ZA,2024-04-20 13:41:34
235,pandan,14.0453,124.1694,77.86,81,42,6.85,PH,2024-04-20 13:41:34
236,sirte,31.2089,16.5887,61.77,67,56,14.34,LY,2024-04-20 13:41:35
237,tougue,11.4667,-11.6,87.66,24,100,3.2,GN,2024-04-20 13:41:35
238,sao martinho,39.5144,-9.1311,59.9,87,78,8.01,PT,2024-04-20 13:41:35
239,parkes,-33.1333,148.1833,46.35,79,0,5.68,AU,2024-04-20 13:41:35
240,nova sintra,14.8667,-24.7167,74.5,80,98,21.99,CV,2024-04-20 13:39:43
241,namibe,-15.1961,12.1522,76.77,76,8,5.88,AO,2024-04-20 13:39:48
242,korla,41.7597,86.1469,62.28,36,0,1.59,CN,2024-04-20 13:41:36
243,south hedland,-20.4089,118.5983,66.13,27,0,8.05,AU,2024-04-20 13:41:36
244,arkhangel'sk,64.5401,40.5433,28.31,89,75,6.71,RU,2024-04-20 13:41:36
245,codrington,-38.2667,141.9667,46.74,90,60,3.83,AU,2024-04-20 13:39:42
246,saint-joseph,-21.3667,55.6167,73.78,77,100,4.0,RE,2024-04-20 13:39:40
247,isabela,6.7085,121.9711,78.66,86,100,3.22,PH,2024-04-20 13:41:36
248,ocean city,39.2776,-74.5746,67.12,51,37,1.99,US,2024-04-20 13:40:10
249,kirkwall,58.9848,-2.9587,41.05,87,100,2.3,GB,2024-04-20 13:41:37
250,ta`u,-14.2336,-169.5144,84.0,75,84,14.94,AS,2024-04-20 13:39:19
251,waddan,29.1614,16.139,70.83,28,80,13.11,LY,2024-04-20 13:41:37
252,pierre,44.3683,-100.351,49.78,42,0,19.57,US,2024-04-20 13:40:52
253,berezovyy,51.6667,135.7,28.94,94,100,1.36,RU,2024-04-20 13:41:37
254,belmonte,-15.8631,-38.8828,78.6,80,53,14.76,BR,2024-04-20 13:39:52
255,aral,40.5156,81.2636,65.8,26,27,5.91,CN,2024-04-20 13:41:38
256,saldanha,-33.0117,17.9442,55.45,92,98,5.75,ZA,2024-04-20 13:39:35
257,port mathurin,-19.6833,63.4167,79.68,82,91,18.3,MU,2024-04-20 13:39:25
258,coahuayana de hidalgo,18.7,-103.6583,86.58,45,8,7.78,MX,2024-04-20 13:39:49
259,kaoma,-14.7833,24.8,66.09,53,5,5.59,ZM,2024-04-20 13:41:38
260,lashio,22.9333,97.75,67.15,55,0,2.06,MM,2024-04-20 13:41:38
261,port lincoln,-34.7333,135.8667,55.87,80,2,8.61,AU,2024-04-20 13:39:33
262,imbituba,-28.24,-48.6703,73.85,77,0,11.95,BR,2024-04-20 13:41:39
263,harstad,68.799,16.5293,31.98,58,4,1.99,NO,2024-04-20 13:39:21
264,trairi,-3.2778,-39.2689,74.23,97,100,10.07,BR,2024-04-20 13:41:39
265,santana do livramento,-30.8908,-55.5328,67.73,78,0,5.79,BR,2024-04-20 13:41:39
266,sevastopol,44.6,33.5333,57.0,55,100,8.01,UA,2024-04-20 13:41:39
267,christchurch,-43.5333,172.6333,48.06,98,100,2.3,NZ,2024-04-20 13:38:57
268,labuan,5.2767,115.2417,80.96,94,20,0.0,MY,2024-04-20 13:41:40
269,sungai raya,0.7,108.9,79.79,88,100,4.5,ID,2024-04-20 13:41:40
270,jwaneng,-24.6004,24.7303,68.2,38,10,1.66,BW,2024-04-20 13:41:40
271,kapa'a,22.0752,-159.319,76.26,72,75,10.36,US,2024-04-20 13:40:21
272,santa terezinha,-29.9002,-50.0904,69.8,74,0,8.41,BR,2024-04-20 13:41:40
273,burao,9.5221,45.5336,73.56,74,79,7.02,SO,2024-04-20 13:41:40
274,yeed,4.55,43.0333,85.08,62,100,7.99,SO,2024-04-20 13:41:41
275,flying fish cove,-10.4217,105.6791,78.48,100,100,10.36,CX,2024-04-20 13:39:55
276,itoman,26.1247,127.6694,75.29,100,75,10.36,JP,2024-04-20 13:40:27
277,daru,-9.0763,143.2092,80.47,83,100,7.18,PG,2024-04-20 13:41:41
278,zabaykal'sk,49.6333,117.3167,35.04,43,87,9.01,RU,2024-04-20 13:41:41
279,sarykemer,43.0,71.5,56.68,54,2,15.55,KZ,2024-04-20 13:41:41
280,tukzar,35.9483,66.4213,55.35,61,23,3.78,AF,2024-04-20 13:41:42
281,kidal,18.4411,1.4078,92.19,7,98,7.63,ML,2024-04-20 13:41:42
282,kill devil hills,36.0307,-75.676,59.38,89,100,11.5,US,2024-04-20 13:41:42
283,hurghada,27.2574,33.8129,80.64,14,0,10.36,EG,2024-04-20 13:41:42
284,metlili chaamba,32.2667,3.6333,63.54,34,100,13.8,DZ,2024-04-20 13:41:42
285,an nimas,19.1455,42.1201,60.85,51,4,1.59,SA,2024-04-20 13:41:43
286,vadso,70.0744,29.7487,24.96,80,100,14.97,NO,2024-04-20 13:40:11
287,kuta,-8.7233,115.1723,82.0,88,20,3.44,ID,2024-04-20 13:41:43
288,saint-francois,46.4154,3.9054,36.9,81,0,3.44,FR,2024-04-20 13:41:43
289,lerwick,60.1545,-1.1494,41.0,58,100,2.8,GB,2024-04-20 13:41:43
290,sortavala,61.7053,30.6918,24.03,93,91,3.0,RU,2024-04-20 13:41:43
291,tafuna,-14.3358,-170.72,85.95,79,40,17.27,AS,2024-04-20 13:41:44
292,north platte,41.1239,-100.7654,42.85,48,100,7.0,US,2024-04-20 13:41:44
293,bereznik,62.8551,42.7072,27.75,92,62,5.26,RU,2024-04-20 13:41:44
294,hadibu,12.65,54.0333,82.62,76,1,6.71,YE,2024-04-20 13:39:50
295,dryden,49.7833,-92.7503,41.29,45,40,14.97,CA,2024-04-20 13:41:44
296,whitehorse,60.7161,-135.0538,54.37,17,0,8.05,CA,2024-04-20 13:39:16
297,sokoni,-6.4333,39.55,81.48,83,90,18.28,TZ,2024-04-20 13:41:45
298,tionk essil,12.7856,-16.5217,74.84,69,74,9.66,SN,2024-04-20 13:41:45
299,nemuro,43.3236,145.575,36.97,91,100,16.08,JP,2024-04-20 13:40:24
300,ponta delgada,37.7333,-25.6667,63.32,82,20,10.36,PT,2024-04-20 13:41:45
301,namdrik,5.5994,168.1028,82.56,83,95,17.31,MH,2024-04-20 13:41:46
302,hobyo,5.3505,48.5268,85.06,74,86,9.78,SO,2024-04-20 13:40:12
303,stung treng,13.5259,105.9683,80.44,61,35,5.3,KH,2024-04-20 13:41:46
304,mugia,43.1041,-9.2179,57.9,75,0,17.2,ES,2024-04-20 13:39:38
305,toliara,-23.35,43.6667,72.16,86,7,5.57,MG,2024-04-20 13:41:46
306,es castell,39.8795,4.2854,54.28,71,20,2.3,ES,2024-04-20 13:41:46
307,am timan,11.0297,20.2827,92.41,27,26,4.34,TD,2024-04-20 13:41:47
308,ilebo,-4.3167,20.5833,69.8,93,100,1.36,CD,2024-04-20 13:41:47
309,elimaki,60.7167,26.4667,25.45,87,95,3.8,FI,2024-04-20 13:41:47
310,juli,-16.2167,-69.45,53.01,53,7,6.08,PE,2024-04-20 13:41:47
311,saltsjobaden,59.2833,18.3,31.75,51,100,1.99,SE,2024-04-20 13:41:47
312,taltal,-25.4,-70.4833,65.98,78,38,2.28,CL,2024-04-20 13:41:48
313,zhanga buqtyrma,49.6295,83.5248,41.88,77,0,4.83,KZ,2024-04-20 13:41:48
314,abra pampa,-22.7205,-65.697,69.87,8,0,12.55,AR,2024-04-20 13:41:48
315,mambajao,9.2504,124.7156,80.01,85,37,11.48,PH,2024-04-20 13:41:48
316,bassar,9.25,0.7833,83.1,56,78,6.55,TG,2024-04-20 13:41:48
317,tralee,52.2704,-9.7026,49.51,86,100,2.57,IE,2024-04-20 13:41:49
318,andkhoy,36.9529,65.1238,69.8,43,54,6.71,AF,2024-04-20 13:41:49
319,mopti,14.6667,-4.0,94.17,7,22,8.32,ML,2024-04-20 13:41:49
320,selfoss,63.9331,-20.9971,47.05,97,100,23.87,IS,2024-04-20 13:41:49
321,krasnyy luch,48.1395,38.9371,56.7,67,54,18.41,UA,2024-04-20 13:41:49
322,spring creek,40.7266,-115.5859,65.84,30,100,5.01,US,2024-04-20 13:41:50
323,port moresby,-9.4431,147.1797,76.42,94,40,3.44,PG,2024-04-20 13:39:22
324,tomatlan,19.9333,-105.25,88.52,35,6,10.22,MX,2024-04-20 13:41:50
325,palmas,-10.2128,-48.3603,82.27,83,20,5.75,BR,2024-04-20 13:39:24
326,vernon,50.2581,-119.2691,62.53,21,1,4.61,CA,2024-04-20 13:39:34
327,msowero,-6.5333,37.2,70.0,95,69,3.04,TZ,2024-04-20 13:41:50
328,libenge,3.65,18.6333,77.0,69,47,2.48,CD,2024-04-20 13:41:50
329,sarh,9.1429,18.3923,91.96,33,100,3.47,TD,2024-04-20 13:41:51
330,smedjebacken,60.1418,15.4142,31.62,71,100,3.33,SE,2024-04-20 13:41:51
331,veshenskaya,49.6303,41.7334,59.11,56,100,17.0,RU,2024-04-20 13:41:51
332,parabel',58.6978,81.4825,27.91,65,100,4.0,RU,2024-04-20 13:41:51
333,mbeni,-11.5014,43.3775,77.5,76,98,8.99,KM,2024-04-20 13:41:51
334,airway heights,47.6446,-117.5933,58.59,25,0,13.8,US,2024-04-20 13:41:52
335,kingscliff,-28.2667,153.5667,64.72,94,75,11.5,AU,2024-04-20 13:40:39
336,kayyerkan,69.3786,87.7439,-9.71,100,67,4.52,RU,2024-04-20 13:41:52
337,zachary,30.6485,-91.1565,85.73,58,75,6.91,US,2024-04-20 13:41:52
338,matoury,4.8483,-52.3317,84.16,79,0,9.22,GF,2024-04-20 13:41:52
339,acarau,-2.8856,-40.12,76.24,92,100,13.94,BR,2024-04-20 13:41:53
340,fonte boa,-2.4959,-66.2662,84.25,72,80,3.06,BR,2024-04-20 13:41:53
341,gisborne,-38.6533,178.0042,60.39,87,100,4.16,NZ,2024-04-20 13:41:53
342,yuzhno-kurilsk,44.0306,145.8556,36.37,97,100,23.58,RU,2024-04-20 13:39:55
343,bada,51.392,109.8717,30.18,95,100,2.75,RU,2024-04-20 13:41:53
344,aksu,41.1231,80.2644,63.01,30,20,1.97,CN,2024-04-20 13:41:53
345,sao felix do xingu,-6.6447,-51.995,77.29,95,100,0.54,BR,2024-04-20 13:39:29
346,nantucket,41.2835,-70.0995,48.38,98,100,11.5,US,2024-04-20 13:41:54
347,guelmim,28.987,-10.0574,62.94,67,100,17.27,MA,2024-04-20 13:41:54
348,talcahuano,-36.7167,-73.1167,58.68,63,0,8.05,CL,2024-04-20 13:37:31
349,saint-louis,16.3333,-15.0,86.07,22,19,17.31,SN,2024-04-20 13:41:54
350,kiunga,-6.1219,141.2906,75.24,99,100,1.01,PG,2024-04-20 13:40:04
351,yeppoon,-23.1333,150.7333,60.58,84,97,13.42,AU,2024-04-20 13:41:55
352,ambalangoda,6.2355,80.0538,82.06,82,82,5.5,LK,2024-04-20 13:41:52
353,pacific grove,36.6177,-121.9166,60.3,75,0,8.99,US,2024-04-20 13:39:57
354,erenhot,43.6475,111.9767,56.57,30,63,25.88,CN,2024-04-20 13:41:55
355,karatuzskoye,53.6072,92.8667,33.39,88,14,4.0,RU,2024-04-20 13:41:55
356,santo antonio da platina,-23.295,-50.0772,71.24,69,0,4.7,BR,2024-04-20 13:41:55
357,lormi,22.2833,81.7333,88.59,26,54,4.27,IN,2024-04-20 13:41:56
358,buka,40.8108,69.1986,64.35,67,100,6.06,UZ,2024-04-20 13:41:56
359,kirakira,-10.4544,161.9205,83.17,85,89,5.12,SB,2024-04-20 13:39:06
360,mumbwa,-14.9783,27.0619,65.39,65,27,4.47,ZM,2024-04-20 13:41:56
361,manali,13.1667,80.2667,85.53,85,98,8.55,IN,2024-04-20 13:41:56
362,cidreira,-30.1811,-50.2056,69.1,76,0,9.33,BR,2024-04-20 13:41:57
363,kedougou,12.5579,-12.1743,96.13,21,81,3.65,SN,2024-04-20 13:41:57
364,northam,51.0333,-4.2167,47.89,79,17,6.71,GB,2024-04-20 13:41:57
365,zhaqsy,51.9083,67.3133,61.9,61,0,5.44,KZ,2024-04-20 13:41:57
366,westfield,42.1251,-72.7495,60.53,50,75,9.22,US,2024-04-20 13:41:58
367,chulakkurgan,43.765,69.1814,62.29,44,2,11.43,KZ,2024-04-20 13:41:58
368,saudarkrokur,65.7461,-19.6394,44.33,90,100,25.97,IS,2024-04-20 13:39:34
369,farasan,16.7022,42.1183,85.39,78,7,5.35,SA,2024-04-20 13:41:58
370,san andres,12.5847,-81.7006,86.02,70,20,5.75,CO,2024-04-20 13:40:03
371,ca mau,9.1769,105.15,77.04,82,100,1.74,VN,2024-04-20 13:41:58
372,forster,-32.1667,152.5167,60.3,100,79,9.71,AU,2024-04-20 13:41:59
373,ulsteinvik,62.3432,5.8487,38.19,84,10,1.99,NO,2024-04-20 13:41:59
374,fort-shevchenko,44.5086,50.263,69.58,36,1,5.99,KZ,2024-04-20 13:41:59
375,dumai,1.6833,101.45,75.27,100,98,1.88,ID,2024-04-20 13:41:59
376,mabaruma,8.2,-59.7833,82.74,73,100,6.26,GY,2024-04-20 13:39:57
377,tabuk,17.4189,121.4443,70.59,78,2,4.85,PH,2024-04-20 13:41:59
378,new norfolk,-42.7826,147.0587,48.02,98,71,3.71,AU,2024-04-20 13:40:20
379,carutapera,-1.195,-46.02,77.95,93,98,8.19,BR,2024-04-20 13:39:34
380,tadmur,34.5608,38.2805,67.01,58,6,5.48,SY,2024-04-20 13:42:00
381,marsa alam,25.0757,34.8918,77.49,41,0,5.35,EG,2024-04-20 13:42:00
382,bengkulu,-3.8004,102.2655,76.89,91,100,3.76,ID,2024-04-20 13:42:00
383,tindouf,27.6711,-8.1474,72.05,33,100,23.02,DZ,2024-04-20 13:39:51
384,mizdah,31.4451,12.9801,64.0,30,59,14.65,LY,2024-04-20 13:42:00
385,minas,-34.3759,-55.2377,67.53,82,80,6.22,UY,2024-04-20 13:42:01
386,champerico,14.3,-91.9167,99.14,67,15,13.42,GT,2024-04-20 13:42:01
387,aflou,34.1128,2.1023,54.5,33,2,17.29,DZ,2024-04-20 13:42:01
388,ust-tsilma,65.441,52.1498,34.61,99,99,8.01,RU,2024-04-20 13:42:01
389,inarajan village,13.2736,144.7484,81.05,89,100,16.51,GU,2024-04-20 13:42:01
390,extrema,-22.8547,-46.3183,63.93,89,0,2.17,BR,2024-04-20 13:42:02
391,conceicao da barra,-18.5933,-39.7322,76.21,72,1,10.58,BR,2024-04-20 13:42:02
392,sampang,-7.1872,113.2394,80.91,85,99,6.93,ID,2024-04-20 13:42:02
393,magistral'nyy,56.1725,107.4458,31.37,97,100,0.92,RU,2024-04-20 13:42:02
394,antigonish,45.6169,-61.9986,43.93,77,100,5.01,CA,2024-04-20 13:42:02
395,san buenaventura,27.0833,-101.5333,88.07,41,24,14.09,MX,2024-04-20 13:42:03
396,soio,-6.1349,12.3689,79.23,91,54,6.51,AO,2024-04-20 13:42:03
397,port augusta,-32.5,137.7667,51.55,56,0,4.36,AU,2024-04-20 13:42:03
398,halifax,44.6453,-63.5724,41.76,92,100,5.01,CA,2024-04-20 13:37:17
399,sao miguel do araguaia,-13.275,-50.1628,80.13,79,100,5.06,BR,2024-04-20 13:42:03
400,holualoa,19.6228,-155.9522,73.47,86,75,11.5,US,2024-04-20 13:39:53
401,tobruk,32.0836,23.9764,61.65,69,5,9.95,LY,2024-04-20 13:39:42
402,melekeok village,7.4957,134.6367,79.36,94,75,0.0,PW,2024-04-20 13:42:04
403,as sulayyil,20.4607,45.5779,91.65,24,2,7.34,SA,2024-04-20 13:42:04
404,swakopmund,-22.6833,14.5333,59.85,84,64,6.44,NA,2024-04-20 13:42:04
405,mahajanga,-15.7167,46.3167,80.56,74,93,4.18,MG,2024-04-20 13:42:04
406,sisimiut,66.9395,-53.6735,25.92,71,100,9.84,GL,2024-04-20 13:39:45
407,richmond,37.5538,-77.4603,72.45,55,75,12.66,US,2024-04-20 13:39:55
408,dunedin,-45.8742,170.5036,50.81,99,86,3.38,NZ,2024-04-20 13:40:07
409,divnogorsk,55.9594,92.3619,27.09,98,54,4.09,RU,2024-04-20 13:42:05
410,wuwei,37.9281,102.6414,52.11,25,0,6.96,CN,2024-04-20 13:42:05
411,mokhsogollokh,61.4681,128.9203,37.22,92,100,10.74,RU,2024-04-20 13:42:05
412,kantunilkin,21.0917,-87.45,95.36,28,15,8.66,MX,2024-04-20 13:42:05
413,kalabo,-14.97,22.6814,69.4,43,13,5.86,ZM,2024-04-20 13:42:06
414,margate,51.3813,1.3862,45.34,63,31,10.0,GB,2024-04-20 13:42:06
415,sestri levante,44.2732,9.3968,51.28,58,16,1.99,IT,2024-04-20 13:42:06
416,slatina,44.4333,24.3667,51.22,68,41,4.03,RO,2024-04-20 13:42:06
417,banda aceh,5.5577,95.3222,80.91,79,45,11.54,ID,2024-04-20 13:42:06
418,nizhnyaya tavda,57.6731,66.1725,58.87,84,100,3.83,RU,2024-04-20 13:42:06
419,st. john's,47.5649,-52.7093,39.52,69,75,18.41,CA,2024-04-20 13:39:46
420,igoumenitsa,39.5039,20.2656,58.55,61,5,6.29,GR,2024-04-20 13:42:07
421,aldan,58.6031,125.3894,21.15,84,7,6.33,RU,2024-04-20 13:42:07
422,changshu city,31.6462,120.7422,54.81,93,100,4.18,CN,2024-04-20 13:42:07
423,cambria,35.5641,-121.0808,77.79,67,33,9.71,US,2024-04-20 13:42:08
424,tsiombe,-25.3,45.4833,69.06,95,0,2.51,MG,2024-04-20 13:42:08
425,tromso,69.6496,18.957,28.42,54,0,3.44,NO,2024-04-20 13:40:00
426,dhidhdhoo,6.8833,73.1,84.76,75,100,9.35,MV,2024-04-20 13:42:08
427,tommot,58.9564,126.2925,22.82,94,48,3.51,RU,2024-04-20 13:42:08
428,wanning,18.8003,110.3967,79.45,89,6,14.5,CN,2024-04-20 13:42:08
429,taroa,8.7058,171.2275,82.06,81,100,21.81,MH,2024-04-20 13:42:09
430,dallas,32.7668,-96.7836,51.06,96,100,12.66,US,2024-04-20 13:38:48
431,klintsy,52.7602,32.2393,45.1,68,100,7.25,RU,2024-04-20 13:42:09
432,sullivan,36.5168,-82.5332,65.71,61,20,10.36,US,2024-04-20 13:42:09
433,paita,-5.0892,-81.1144,75.47,71,10,14.92,PE,2024-04-20 13:42:09
434,sechura,-5.5569,-80.8222,79.39,61,21,14.32,PE,2024-04-20 13:40:02
435,eraan,9.0629,117.7016,77.9,86,87,3.42,PH,2024-04-20 13:42:10
436,ixtapa,20.7,-105.2,79.83,54,0,9.22,MX,2024-04-20 13:42:10
437,hotan,37.0997,79.9269,62.38,31,92,5.17,CN,2024-04-20 13:39:47
438,san luis de la loma,17.2706,-100.8939,86.09,46,5,11.7,MX,2024-04-20 13:42:10
439,znamenskoye,57.1281,73.8282,45.9,97,92,4.03,RU,2024-04-20 13:42:10
440,coronel dorrego,-38.7187,-61.2873,59.85,59,100,9.86,AR,2024-04-20 13:42:10
441,qamdo,31.1667,97.2333,34.83,58,52,2.77,CN,2024-04-20 13:42:11
